{
  "us-east-1": { "name": "US East (N. Virginia)", "city": "Ashburn", "country": "US", "lat": 38.9519, "lng": -77.448, "launched_year": 2006 },
  "us-east-2": { "name": "US East (Ohio)", "city": "Columbus", "country": "US", "lat": 39.9612, "lng": -82.9988, "launched_year": 2016 },
  "us-west-1": { "name": "US West (N. California)", "city": "San Jose", "country": "US", "lat": 37.3382, "lng": -121.8863, "launched_year": 2009 },
  "us-west-2": { "name": "US West (Oregon)", "city": "Boardman", "country": "US", "lat": 45.8399, "lng": -119.7006, "launched_year": 2011 },
  "af-south-1": { "name": "Africa (Cape Town)", "city": "Cape Town", "country": "ZA", "lat": -33.9249, "lng": 18.4241, "launched_year": 2020 },
  "ap-east-1": { "name": "Asia Pacific (Hong Kong)", "city": "Hong Kong", "country": "HK", "lat": 22.3193, "lng": 114.1694, "launched_year": 2019 },
  "ap-south-1": { "name": "Asia Pacific (Mumbai)", "city": "Mumbai", "country": "IN", "lat": 19.076, "lng": 72.8777, "launched_year": 2016 },
  "ap-south-2": { "name": "Asia Pacific (Hyderabad)", "city": "Hyderabad", "country": "IN", "lat": 17.385, "lng": 78.4867, "launched_year": 2022 },
  "ap-northeast-1": { "name": "Asia Pacific (Tokyo)", "city": "Tokyo", "country": "JP", "lat": 35.6762, "lng": 139.6503, "launched_year": 2011 },
  "ap-northeast-2": { "name": "Asia Pacific (Seoul)", "city": "Seoul", "country": "KR", "lat": 37.5665, "lng": 126.978, "launched_year": 2016 },
  "ap-northeast-3": { "name": "Asia Pacific (Osaka)", "city": "Osaka", "country": "JP", "lat": 34.6937, "lng": 135.5023, "launched_year": 2021 },
  "ap-southeast-1": { "name": "Asia Pacific (Singapore)", "city": "Singapore", "country": "SG", "lat": 1.3521, "lng": 103.8198, "launched_year": 2010 },
  "ap-southeast-2": { "name": "Asia Pacific (Sydney)", "city": "Sydney", "country": "AU", "lat": -33.8688, "lng": 151.2093, "launched_year": 2012 },
  "ap-southeast-3": { "name": "Asia Pacific (Jakarta)", "city": "Jakarta", "country": "ID", "lat": -6.2088, "lng": 106.8456, "launched_year": 2021 },
  "ap-southeast-4": { "name": "Asia Pacific (Melbourne)", "city": "Melbourne", "country": "AU", "lat": -37.8136, "lng": 144.9631, "launched_year": 2023 },
  "ap-southeast-5": { "name": "Asia Pacific (Malaysia)", "city": "Kuala Lumpur", "country": "MY", "lat": 3.139, "lng": 101.6869, "launched_year": 2024 },
  "ap-southeast-7": { "name": "Asia Pacific (Thailand)", "city": "Bangkok", "country": "TH", "lat": 13.7563, "lng": 100.5018, "launched_year": 2025 },
  "ca-central-1": { "name": "Canada (Central)", "city": "Montreal", "country": "CA", "lat": 45.5017, "lng": -73.5673, "launched_year": 2016 },
  "ca-west-1": { "name": "Canada West (Calgary)", "city": "Calgary", "country": "CA", "lat": 51.0447, "lng": -114.0719, "launched_year": 2023 },
  "eu-central-1": { "name": "Europe (Frankfurt)", "city": "Frankfurt", "country": "DE", "lat": 50.1109, "lng": 8.6821, "launched_year": 2014 },
  "eu-central-2": { "name": "Europe (Zurich)", "city": "Zurich", "country": "CH", "lat": 47.3769, "lng": 8.5417, "launched_year": 2022 },
  "eu-west-1": { "name": "Europe (Ireland)", "city": "Dublin", "country": "IE", "lat": 53.3498, "lng": -6.2603, "launched_year": 2007 },
  "eu-west-2": { "name": "Europe (London)", "city": "London", "country": "GB", "lat": 51.5074, "lng": -0.1278, "launched_year": 2016 },
  "eu-west-3": { "name": "Europe (Paris)", "city": "Paris", "country": "FR", "lat": 48.8566, "lng": 2.3522, "launched_year": 2017 },
  "eu-north-1": { "name": "Europe (Stockholm)", "city": "Stockholm", "country": "SE", "lat": 59.3293, "lng": 18.0686, "launched_year": 2018 },
  "eu-south-1": { "name": "Europe (Milan)", "city": "Milan", "country": "IT", "lat": 45.4642, "lng": 9.19, "launched_year": 2020 },
  "eu-south-2": { "name": "Europe (Spain)", "city": "Aragón", "country": "ES", "lat": 41.6488, "lng": -0.8891, "launched_year": 2022 },
  "il-central-1": { "name": "Israel (Tel Aviv)", "city": "Tel Aviv", "country": "IL", "lat": 32.0853, "lng": 34.7818, "launched_year": 2023 },
  "me-south-1": { "name": "Middle East (Bahrain)", "city": "Manama", "country": "BH", "lat": 26.2235, "lng": 50.5876, "launched_year": 2019 },
  "me-central-1": { "name": "Middle East (UAE)", "city": "Dubai", "country": "AE", "lat": 25.2048, "lng": 55.2708, "launched_year": 2022 },
  "mx-central-1": { "name": "Mexico (Central)", "city": "Querétaro", "country": "MX", "lat": 20.5888, "lng": -100.3899, "launched_year": 2025 },
  "sa-east-1": { "name": "South America (São Paulo)", "city": "São Paulo", "country": "BR", "lat": -23.5505, "lng": -46.6333, "launched_year": 2011 }
}
