{
  "africa-south1": { "name": "Johannesburg", "city": "Johannesburg", "country": "ZA", "lat": -26.2041, "lng": 28.0473, "launched_year": 2024 },
  "asia-east1": { "name": "Changhua County", "city": "Changhua", "country": "TW", "lat": 24.0518, "lng": 120.5161, "launched_year": 2013 },
  "asia-east2": { "name": "Hong Kong", "city": "Hong Kong", "country": "HK", "lat": 22.3193, "lng": 114.1694, "launched_year": 2018 },
  "asia-northeast1": { "name": "Tokyo", "city": "Tokyo", "country": "JP", "lat": 35.6762, "lng": 139.6503, "launched_year": 2016 },
  "asia-northeast2": { "name": "Osaka", "city": "Osaka", "country": "JP", "lat": 34.6937, "lng": 135.5023, "launched_year": 2019 },
  "asia-northeast3": { "name": "Seoul", "city": "Seoul", "country": "KR", "lat": 37.5665, "lng": 126.978, "launched_year": 2020 },
  "asia-south1": { "name": "Mumbai", "city": "Mumbai", "country": "IN", "lat": 19.076, "lng": 72.8777, "launched_year": 2017 },
  "asia-south2": { "name": "Delhi", "city": "Delhi", "country": "IN", "lat": 28.7041, "lng": 77.1025, "launched_year": 2021 },
  "asia-southeast1": { "name": "Jurong West", "city": "Singapore", "country": "SG", "lat": 1.3521, "lng": 103.8198, "launched_year": 2017 },
  "asia-southeast2": { "name": "Jakarta", "city": "Jakarta", "country": "ID", "lat": -6.2088, "lng": 106.8456, "launched_year": 2020 },
  "australia-southeast1": { "name": "Sydney", "city": "Sydney", "country": "AU", "lat": -33.8688, "lng": 151.2093, "launched_year": 2017 },
  "australia-southeast2": { "name": "Melbourne", "city": "Melbourne", "country": "AU", "lat": -37.8136, "lng": 144.9631, "launched_year": 2021 },
  "europe-central2": { "name": "Warsaw", "city": "Warsaw", "country": "PL", "lat": 52.2297, "lng": 21.0122, "launched_year": 2021 },
  "europe-north1": { "name": "Hamina", "city": "Hamina", "country": "FI", "lat": 60.5693, "lng": 27.1878, "launched_year": 2018 },
  "europe-north2": { "name": "Stockholm", "city": "Stockholm", "country": "SE", "lat": 59.3293, "lng": 18.0686, "launched_year": 2025 },
  "europe-southwest1": { "name": "Madrid", "city": "Madrid", "country": "ES", "lat": 40.4168, "lng": -3.7038, "launched_year": 2022 },
  "europe-west1": { "name": "St. Ghislain", "city": "St. Ghislain", "country": "BE", "lat": 50.4504, "lng": 3.8154, "launched_year": 2015 },
  "europe-west2": { "name": "London", "city": "London", "country": "GB", "lat": 51.5074, "lng": -0.1278, "launched_year": 2017 },
  "europe-west3": { "name": "Frankfurt", "city": "Frankfurt", "country": "DE", "lat": 50.1109, "lng": 8.6821, "launched_year": 2017 },
  "europe-west4": { "name": "Eemshaven", "city": "Eemshaven", "country": "NL", "lat": 53.4386, "lng": 6.8355, "launched_year": 2018 },
  "europe-west6": { "name": "Zurich", "city": "Zurich", "country": "CH", "lat": 47.3769, "lng": 8.5417, "launched_year": 2019 },
  "europe-west8": { "name": "Milan", "city": "Milan", "country": "IT", "lat": 45.4642, "lng": 9.19, "launched_year": 2022 },
  "europe-west9": { "name": "Paris", "city": "Paris", "country": "FR", "lat": 48.8566, "lng": 2.3522, "launched_year": 2022 },
  "europe-west10": { "name": "Berlin", "city": "Berlin", "country": "DE", "lat": 52.52, "lng": 13.405, "launched_year": 2023 },
  "europe-west12": { "name": "Turin", "city": "Turin", "country": "IT", "lat": 45.0703, "lng": 7.6869, "launched_year": 2023 },
  "me-central1": { "name": "Doha", "city": "Doha", "country": "QA", "lat": 25.2854, "lng": 51.531, "launched_year": 2023 },
  "me-central2": { "name": "Dammam", "city": "Dammam", "country": "SA", "lat": 26.4282, "lng": 50.0888, "launched_year": 2023 },
  "me-west1": { "name": "Tel Aviv", "city": "Tel Aviv", "country": "IL", "lat": 32.0853, "lng": 34.7818, "launched_year": 2022 },
  "northamerica-northeast1": { "name": "Montréal", "city": "Montreal", "country": "CA", "lat": 45.5017, "lng": -73.5673, "launched_year": 2018 },
  "northamerica-northeast2": { "name": "Toronto", "city": "Toronto", "country": "CA", "lat": 43.6532, "lng": -79.3832, "launched_year": 2021 },
  "northamerica-south1": { "name": "Querétaro", "city": "Querétaro", "country": "MX", "lat": 20.5888, "lng": -100.3899, "launched_year": 2024 },
  "southamerica-east1": { "name": "Osasco", "city": "São Paulo", "country": "BR", "lat": -23.5505, "lng": -46.6333, "launched_year": 2017 },
  "southamerica-west1": { "name": "Santiago", "city": "Santiago", "country": "CL", "lat": -33.4489, "lng": -70.6693, "launched_year": 2021 },
  "us-central1": { "name": "Council Bluffs, Iowa", "city": "Council Bluffs", "country": "US", "lat": 41.2619, "lng": -95.8608, "launched_year": 2009 },
  "us-east1": { "name": "Moncks Corner, South Carolina", "city": "Moncks Corner", "country": "US", "lat": 33.1957, "lng": -80.0098, "launched_year": 2015 },
  "us-east4": { "name": "Ashburn, Virginia", "city": "Ashburn", "country": "US", "lat": 39.0438, "lng": -77.4874, "launched_year": 2017 },
  "us-east5": { "name": "Columbus, Ohio", "city": "Columbus", "country": "US", "lat": 39.9612, "lng": -82.9988, "launched_year": 2022 },
  "us-south1": { "name": "Dallas, Texas", "city": "Dallas", "country": "US", "lat": 32.7767, "lng": -96.797, "launched_year": 2022 },
  "us-west1": { "name": "The Dalles, Oregon", "city": "The Dalles", "country": "US", "lat": 45.5946, "lng": -121.1787, "launched_year": 2016 },
  "us-west2": { "name": "Los Angeles, California", "city": "Los Angeles", "country": "US", "lat": 34.0522, "lng": -118.2437, "launched_year": 2018 },
  "us-west3": { "name": "Salt Lake City, Utah", "city": "Salt Lake City", "country": "US", "lat": 40.7608, "lng": -111.891, "launched_year": 2020 },
  "us-west4": { "name": "Las Vegas, Nevada", "city": "Las Vegas", "country": "US", "lat": 36.1699, "lng": -115.1398, "launched_year": 2020 }
}
