{
  "us-ashburn-1": { "name": "US East (Ashburn)", "city": "Ashburn", "country": "US", "lat": 39.0438, "lng": -77.4874, "launched_year": 2016 },
  "us-phoenix-1": { "name": "US West (Phoenix)", "city": "Phoenix", "country": "US", "lat": 33.4484, "lng": -112.074, "launched_year": 2017 },
  "us-sanjose-1": { "name": "US West (San Jose)", "city": "San Jose", "country": "US", "lat": 37.3382, "lng": -121.8863, "launched_year": 2020 },
  "us-chicago-1": { "name": "US Midwest (Chicago)", "city": "Chicago", "country": "US", "lat": 41.8781, "lng": -87.6298, "launched_year": 2022 },
  "us-langley-1": { "name": "US Gov East (Ashburn)", "city": "Ashburn", "country": "US", "lat": 39.0438, "lng": -77.4874, "launched_year": 2018 },
  "us-luke-1": { "name": "US Gov West (Phoenix)", "city": "Phoenix", "country": "US", "lat": 33.4484, "lng": -112.074, "launched_year": 2018 },
  "ca-toronto-1": { "name": "Canada Southeast (Toronto)", "city": "Toronto", "country": "CA", "lat": 43.6532, "lng": -79.3832, "launched_year": 2019 },
  "ca-montreal-1": { "name": "Canada Southeast (Montreal)", "city": "Montreal", "country": "CA", "lat": 45.5017, "lng": -73.5673, "launched_year": 2020 },
  "sa-saopaulo-1": { "name": "Brazil East (Sao Paulo)", "city": "São Paulo", "country": "BR", "lat": -23.5505, "lng": -46.6333, "launched_year": 2019 },
  "sa-vinhedo-1": { "name": "Brazil Southeast (Vinhedo)", "city": "Vinhedo", "country": "BR", "lat": -23.03, "lng": -46.9756, "launched_year": 2021 },
  "sa-santiago-1": { "name": "Chile (Santiago)", "city": "Santiago", "country": "CL", "lat": -33.4489, "lng": -70.6693, "launched_year": 2021 },
  "sa-valparaiso-1": { "name": "Chile (Valparaiso)", "city": "Valparaíso", "country": "CL", "lat": -33.0458, "lng": -71.6197, "launched_year": 2023 },
  "sa-bogota-1": { "name": "Colombia (Bogota)", "city": "Bogotá", "country": "CO", "lat": 4.711, "lng": -74.0721, "launched_year": 2022 },
  "mx-queretaro-1": { "name": "Mexico (Queretaro)", "city": "Querétaro", "country": "MX", "lat": 20.5888, "lng": -100.3899, "launched_year": 2022 },
  "mx-monterrey-1": { "name": "Mexico (Monterrey)", "city": "Monterrey", "country": "MX", "lat": 25.6866, "lng": -100.3161, "launched_year": 2023 },
  "uk-london-1": { "name": "UK South (London)", "city": "London", "country": "GB", "lat": 51.5074, "lng": -0.1278, "launched_year": 2018 },
  "uk-cardiff-1": { "name": "UK West (Newport)", "city": "Newport", "country": "GB", "lat": 51.5842, "lng": -2.998, "launched_year": 2020 },
  "uk-gov-london-1": { "name": "UK Gov South (London)", "city": "London", "country": "GB", "lat": 51.5074, "lng": -0.1278, "launched_year": 2019 },
  "eu-frankfurt-1": { "name": "Germany Central (Frankfurt)", "city": "Frankfurt", "country": "DE", "lat": 50.1109, "lng": 8.6821, "launched_year": 2018 },
  "eu-amsterdam-1": { "name": "Netherlands Northwest (Amsterdam)", "city": "Amsterdam", "country": "NL", "lat": 52.3676, "lng": 4.9041, "launched_year": 2020 },
  "eu-paris-1": { "name": "France Central (Paris)", "city": "Paris", "country": "FR", "lat": 48.8566, "lng": 2.3522, "launched_year": 2021 },
  "eu-marseille-1": { "name": "France South (Marseille)", "city": "Marseille", "country": "FR", "lat": 43.2965, "lng": 5.3698, "launched_year": 2021 },
  "eu-milan-1": { "name": "Italy Northwest (Milan)", "city": "Milan", "country": "IT", "lat": 45.4642, "lng": 9.19, "launched_year": 2021 },
  "eu-zurich-1": { "name": "Switzerland North (Zurich)", "city": "Zurich", "country": "CH", "lat": 47.3769, "lng": 8.5417, "launched_year": 2020 },
  "eu-stockholm-1": { "name": "Sweden Central (Stockholm)", "city": "Stockholm", "country": "SE", "lat": 59.3293, "lng": 18.0686, "launched_year": 2021 },
  "eu-madrid-1": { "name": "Spain Central (Madrid)", "city": "Madrid", "country": "ES", "lat": 40.4168, "lng": -3.7038, "launched_year": 2022 },
  "me-jeddah-1": { "name": "Saudi Arabia West (Jeddah)", "city": "Jeddah", "country": "SA", "lat": 21.4858, "lng": 39.1925, "launched_year": 2020 },
  "me-riyadh-1": { "name": "Saudi Arabia Central (Riyadh)", "city": "Riyadh", "country": "SA", "lat": 24.7136, "lng": 46.6753, "launched_year": 2023 },
  "me-dubai-1": { "name": "UAE East (Dubai)", "city": "Dubai", "country": "AE", "lat": 25.2048, "lng": 55.2708, "launched_year": 2021 },
  "me-abudhabi-1": { "name": "UAE Central (Abu Dhabi)", "city": "Abu Dhabi", "country": "AE", "lat": 24.4539, "lng": 54.3773, "launched_year": 2022 },
  "il-jerusalem-1": { "name": "Israel Central (Jerusalem)", "city": "Jerusalem", "country": "IL", "lat": 31.7683, "lng": 35.2137, "launched_year": 2021 },
  "af-johannesburg-1": { "name": "South Africa Central (Johannesburg)", "city": "Johannesburg", "country": "ZA", "lat": -26.2041, "lng": 28.0473, "launched_year": 2022 },
  "ap-tokyo-1": { "name": "Japan East (Tokyo)", "city": "Tokyo", "country": "JP", "lat": 35.6762, "lng": 139.6503, "launched_year": 2019 },
  "ap-osaka-1": { "name": "Japan Central (Osaka)", "city": "Osaka", "country": "JP", "lat": 34.6937, "lng": 135.5023, "launched_year": 2020 },
  "ap-seoul-1": { "name": "South Korea Central (Seoul)", "city": "Seoul", "country": "KR", "lat": 37.5665, "lng": 126.978, "launched_year": 2019 },
  "ap-chuncheon-1": { "name": "South Korea North (Chuncheon)", "city": "Chuncheon", "country": "KR", "lat": 37.8813, "lng": 127.7298, "launched_year": 2020 },
  "ap-mumbai-1": { "name": "India West (Mumbai)", "city": "Mumbai", "country": "IN", "lat": 19.076, "lng": 72.8777, "launched_year": 2019 },
  "ap-hyderabad-1": { "name": "India South (Hyderabad)", "city": "Hyderabad", "country": "IN", "lat": 17.385, "lng": 78.4867, "launched_year": 2020 },
  "ap-singapore-1": { "name": "Singapore (Singapore)", "city": "Singapore", "country": "SG", "lat": 1.3521, "lng": 103.8198, "launched_year": 2020 },
  "ap-singapore-2": { "name": "Singapore West (Singapore)", "city": "Singapore", "country": "SG", "lat": 1.3521, "lng": 103.8198, "launched_year": 2024 },
  "ap-sydney-1": { "name": "Australia East (Sydney)", "city": "Sydney", "country": "AU", "lat": -33.8688, "lng": 151.2093, "launched_year": 2019 },
  "ap-melbourne-1": { "name": "Australia Southeast (Melbourne)", "city": "Melbourne", "country": "AU", "lat": -37.8136, "lng": 144.9631, "launched_year": 2020 },
  "ap-batam-1": { "name": "Indonesia Central (Batam)", "city": "Batam", "country": "ID", "lat": 1.0456, "lng": 104.0305, "launched_year": 2024 },
  "ap-suwon-1": { "name": "South Korea (Suwon)", "city": "Suwon", "country": "KR", "lat": 37.2636, "lng": 127.0286, "launched_year": 2023 }
}
